,City,Lat,Lng,Max Temp,Humidity,Cloudiness,Wind Speed,Weather Description,Rainfall,Snowfall,Country,Date
0,Mataura,-46.19,168.86,55.6,66,48,6.38,scattered clouds,0.0,0.0,NZ,2020-05-06 03:18:42
1,Lichinga,-13.31,35.24,57.2,93,75,11.41,broken clouds,0.0,0.0,MZ,2020-05-06 03:18:42
2,Barrow,71.29,-156.79,17.6,78,1,11.41,clear sky,0.0,0.0,US,2020-05-06 03:18:43
3,Busselton,-33.65,115.33,55.0,94,67,26.75,light rain,0.14,0.0,AU,2020-05-06 03:18:43
4,Jamestown,42.1,-79.24,41.0,52,1,6.93,clear sky,0.0,0.0,US,2020-05-06 03:16:34
5,Punta Arenas,-53.15,-70.92,37.0,65,100,4.7,overcast clouds,0.0,0.0,CL,2020-05-06 03:18:43
6,Comodoro Rivadavia,-45.87,-67.5,48.2,70,0,10.29,clear sky,0.0,0.0,AR,2020-05-06 03:15:02
7,Victoria,22.29,114.16,89.01,79,79,5.01,broken clouds,0.0,0.0,HK,2020-05-06 03:18:44
8,Kaitangata,-46.28,169.85,55.99,63,60,7.0,broken clouds,0.0,0.0,NZ,2020-05-06 03:18:44
9,Aksu,41.12,80.26,70.25,31,100,3.44,overcast clouds,0.0,0.0,CN,2020-05-06 03:18:44
10,Tunggol,5.84,121.15,86.59,67,3,5.73,clear sky,0.0,0.0,PH,2020-05-06 03:18:45
11,Sungairaya,0.7,108.9,88.9,65,58,7.34,broken clouds,0.0,0.0,ID,2020-05-06 03:18:45
12,Sao Felix Do Xingu,-6.64,-51.99,72.86,95,72,1.43,broken clouds,0.0,0.0,BR,2020-05-06 03:18:45
13,Norman Wells,65.28,-126.83,51.8,43,20,6.93,few clouds,0.0,0.0,CA,2020-05-06 03:15:39
14,Kenai,60.55,-151.26,60.8,33,40,17.22,scattered clouds,0.0,0.0,US,2020-05-06 03:18:46
15,Clyde River,70.47,-68.59,6.8,84,1,6.93,clear sky,0.0,0.0,CA,2020-05-06 03:18:46
16,Kutum,14.2,24.67,71.42,22,17,14.27,few clouds,0.0,0.0,SD,2020-05-06 03:18:46
17,Satuk,41.23,32.38,44.56,88,0,3.18,clear sky,0.0,0.0,TR,2020-05-06 03:18:46
18,Atuona,-9.8,-139.03,81.07,76,13,17.11,light rain,0.18,0.0,PF,2020-05-06 03:18:47
19,Chuy,-33.7,-53.46,56.71,72,45,17.31,scattered clouds,0.0,0.0,UY,2020-05-06 03:18:47
20,Dikson,73.51,80.55,10.13,92,88,12.8,overcast clouds,0.0,0.0,RU,2020-05-06 03:15:03
21,Gat,31.61,34.76,63.0,79,11,13.27,light rain,0.2,0.0,IL,2020-05-06 03:17:01
22,Leningradskiy,69.38,178.42,24.22,94,5,9.46,clear sky,0.0,0.0,RU,2020-05-06 03:17:09
23,Albany,42.6,-73.97,46.0,62,82,4.59,broken clouds,0.0,0.0,US,2020-05-06 03:16:12
24,Meulaboh,4.14,96.13,84.56,70,100,2.46,overcast clouds,0.0,0.0,ID,2020-05-06 03:18:49
25,Ravar,31.27,56.81,77.79,22,55,2.75,broken clouds,0.0,0.0,IR,2020-05-06 03:18:49
26,Palana,59.12,159.97,37.31,77,100,23.96,overcast clouds,0.0,0.0,RU,2020-05-06 03:18:49
27,Hilo,19.73,-155.09,82.4,54,40,9.17,scattered clouds,0.0,0.0,US,2020-05-06 03:18:50
28,Terrak,65.09,12.37,37.4,86,100,5.82,light intensity shower rain,0.0,0.0,NO,2020-05-06 03:18:50
29,Vaini,-21.2,-175.2,78.8,88,75,6.93,broken clouds,0.0,0.0,TO,2020-05-06 03:18:50
30,Boa Vista,2.82,-60.67,78.8,88,75,2.24,broken clouds,0.0,0.0,BR,2020-05-06 03:14:23
31,Ushuaia,-54.8,-68.3,39.2,55,98,6.93,overcast clouds,0.0,0.0,AR,2020-05-06 03:15:00
32,Cape Town,-33.93,18.42,64.99,93,0,9.17,clear sky,0.0,0.0,ZA,2020-05-06 03:18:51
33,Dwarka,22.24,68.97,84.69,73,0,10.63,clear sky,0.0,0.0,IN,2020-05-06 03:18:51
34,Jaciara,-15.97,-54.97,71.1,80,100,1.92,overcast clouds,0.0,0.0,BR,2020-05-06 03:18:51
35,Kununurra,-15.77,128.73,86.0,16,0,11.41,clear sky,0.0,0.0,AU,2020-05-06 03:18:52
36,Rikitea,-23.12,-134.97,73.22,71,92,16.06,overcast clouds,0.0,0.0,PF,2020-05-06 03:18:52
37,Kiruna,67.86,20.23,33.8,74,99,13.87,overcast clouds,0.0,0.0,SE,2020-05-06 03:18:52
38,Kloulklubed,7.04,134.26,80.6,88,75,11.41,light intensity shower rain,0.0,0.0,PW,2020-05-06 03:18:52
39,Ossora,59.24,163.07,32.72,97,100,26.02,snow,0.0,2.46,RU,2020-05-06 03:18:53
40,Georgetown,5.41,100.34,86.0,83,20,4.7,few clouds,0.0,0.0,MY,2020-05-06 03:16:44
41,Cockburn Town,21.46,-71.14,79.84,81,7,15.48,clear sky,0.0,0.0,TC,2020-05-06 03:18:53
42,Avarua,-21.21,-159.78,80.6,78,54,3.36,broken clouds,0.0,0.0,CK,2020-05-06 03:14:24
43,Sabha,27.04,14.43,68.79,27,0,11.56,clear sky,0.0,0.0,LY,2020-05-06 03:18:53
44,Saint-Philippe,-21.36,55.77,73.4,78,28,4.7,scattered clouds,0.0,0.0,RE,2020-05-06 03:11:57
45,New Norfolk,-42.78,147.06,60.01,71,98,3.0,overcast clouds,0.0,0.0,AU,2020-05-06 03:11:57
46,Bethel,41.37,-73.41,44.6,48,1,5.06,clear sky,0.0,0.0,US,2020-05-06 03:11:58
47,Lasa,46.62,10.7,44.6,100,75,8.05,light rain,0.0,0.0,IT,2020-05-06 03:11:58
48,Bengkulu,-3.8,102.27,85.77,65,30,7.87,scattered clouds,0.0,0.0,ID,2020-05-06 03:11:58
49,Lompoc,34.64,-120.46,62.01,72,1,19.46,haze,0.0,0.0,US,2020-05-06 03:11:58
50,Thompson,55.74,-97.86,32.0,96,5,8.05,clear sky,0.0,0.0,CA,2020-05-06 03:11:59
51,Narsaq,60.92,-46.05,44.6,65,100,4.7,overcast clouds,0.0,0.0,GL,2020-05-06 03:11:59
52,Kodiak,57.79,-152.41,43.12,83,100,19.1,light rain,0.37,0.0,US,2020-05-06 03:07:09
53,Butaritari,3.07,172.79,83.01,81,22,12.17,few clouds,0.0,0.0,KI,2020-05-06 03:11:59
54,Puerto Ayora,-0.74,-90.35,77.0,93,20,3.0,few clouds,0.0,0.0,EC,2020-05-06 03:12:00
55,Dong Hoi,17.48,106.6,93.25,53,11,3.31,few clouds,0.0,0.0,VN,2020-05-06 03:12:00
56,Opuwo,-18.06,13.84,63.34,50,1,6.02,clear sky,0.0,0.0,NA,2020-05-06 03:12:00
57,Hermanus,-34.42,19.23,59.0,90,13,1.01,few clouds,0.0,0.0,ZA,2020-05-06 03:12:00
58,Hobart,-42.88,147.33,60.01,54,75,10.29,broken clouds,0.0,0.0,AU,2020-05-06 03:10:51
59,Brainerd,46.36,-94.2,55.4,47,90,10.29,overcast clouds,0.0,0.0,US,2020-05-06 03:07:41
60,Muros,42.78,-9.06,60.01,91,14,4.0,light rain,0.2,0.0,ES,2020-05-06 03:12:01
61,Imbituba,-28.24,-48.67,66.2,93,98,2.24,light rain,0.48,0.0,BR,2020-05-06 03:11:58
62,Tuatapere,-46.13,167.68,55.67,69,96,9.22,overcast clouds,0.0,0.0,NZ,2020-05-06 03:12:02
63,Sitka,57.05,-135.33,53.6,50,40,10.29,scattered clouds,0.0,0.0,US,2020-05-06 03:12:02
64,Bluff,-46.6,168.33,53.98,76,100,25.32,overcast clouds,0.0,0.0,NZ,2020-05-06 03:12:02
65,Kavaratti,10.57,72.64,85.78,75,92,8.61,overcast clouds,0.0,0.0,IN,2020-05-06 03:12:02
66,Tura,25.52,90.22,81.9,67,57,3.96,light rain,0.81,0.0,IN,2020-05-06 03:12:03
67,Tasiilaq,65.61,-37.64,32.0,88,100,6.29,overcast clouds,0.0,0.0,GL,2020-05-06 03:12:03
68,Vila Velha,-20.33,-40.29,73.4,83,78,13.87,broken clouds,0.0,0.0,BR,2020-05-06 03:12:03
69,Sept-Iles,50.2,-66.38,48.2,39,75,6.93,broken clouds,0.0,0.0,CA,2020-05-06 03:12:03
70,Hasaki,35.73,140.83,63.0,93,75,6.93,light intensity shower rain,0.0,0.0,JP,2020-05-06 03:12:04
71,Khatanga,71.97,102.5,9.79,90,0,15.01,clear sky,0.0,0.0,RU,2020-05-06 03:12:04
72,Ribeira Grande,38.52,-28.7,62.6,85,95,14.7,overcast clouds,0.0,0.0,PT,2020-05-06 03:12:04
73,Klaksvik,62.23,-6.59,44.6,87,92,19.46,overcast clouds,0.0,0.0,FO,2020-05-06 03:12:05
74,Hambantota,6.12,81.12,85.24,74,57,13.38,broken clouds,0.0,0.0,LK,2020-05-06 03:12:05
75,Nago,26.59,127.98,80.6,88,75,20.8,broken clouds,0.0,0.0,JP,2020-05-06 03:12:06
76,Zhangye,38.93,100.45,54.37,66,100,11.65,light rain,0.13,0.0,CN,2020-05-06 03:12:06
77,Keningau,5.34,116.16,87.8,74,20,3.36,few clouds,0.0,0.0,MY,2020-05-06 03:12:06
78,Hithadhoo,-0.6,73.08,84.69,72,91,7.38,overcast clouds,0.0,0.0,MV,2020-05-06 03:12:07
79,Tuktoyaktuk,69.45,-133.04,32.0,99,90,2.89,overcast clouds,0.0,0.0,CA,2020-05-06 03:12:07
80,Mahebourg,-20.41,57.7,73.4,94,75,3.36,shower rain,0.0,0.0,MU,2020-05-06 03:12:07
81,Berdigestyakh,62.1,126.7,50.59,47,65,5.91,broken clouds,0.0,0.0,RU,2020-05-06 03:12:07
82,Fairbanks,64.84,-147.72,59.0,28,75,3.94,broken clouds,0.0,0.0,US,2020-05-06 03:10:10
83,Lucea,18.45,-78.17,82.4,74,20,2.24,few clouds,0.0,0.0,JM,2020-05-06 03:12:08
84,Peniche,39.36,-9.38,61.0,90,29,6.11,scattered clouds,0.0,0.0,PT,2020-05-06 03:12:08
85,Bara,10.37,10.73,83.59,48,3,4.34,clear sky,0.0,0.0,NG,2020-05-06 03:12:08
86,Uglegorsk,49.08,142.03,42.6,70,5,6.2,clear sky,0.0,0.0,RU,2020-05-06 03:12:09
87,Vallenar,-28.57,-70.76,58.08,71,7,0.29,clear sky,0.0,0.0,CL,2020-05-06 03:12:09
88,Coruripe,-10.13,-36.18,77.94,86,67,7.87,light rain,0.12,0.0,BR,2020-05-06 03:08:42
89,Kaiyuan,23.7,103.3,84.78,36,46,15.46,scattered clouds,0.0,0.0,CN,2020-05-06 03:12:10
90,Yellowknife,62.46,-114.35,42.8,45,40,17.22,scattered clouds,0.0,0.0,CA,2020-05-06 03:12:10
91,Flin Flon,54.77,-101.86,35.98,83,0,6.02,clear sky,0.0,0.0,CA,2020-05-06 03:12:10
92,Faanui,-16.48,-151.75,82.54,74,4,9.64,clear sky,0.0,0.0,PF,2020-05-06 03:12:11
93,Makakilo City,21.35,-158.09,84.2,51,20,8.05,few clouds,0.0,0.0,US,2020-05-06 03:12:11
94,Chifeng,42.27,118.96,71.4,23,2,15.14,clear sky,0.0,0.0,CN,2020-05-06 03:12:11
95,Mmabatho,-25.85,25.63,48.2,66,0,3.36,clear sky,0.0,0.0,ZA,2020-05-06 03:12:12
96,Bredasdorp,-34.53,20.04,53.6,93,1,2.55,clear sky,0.0,0.0,ZA,2020-05-06 03:12:12
97,Bambous Virieux,-20.34,57.76,73.99,94,75,3.36,shower rain,0.0,0.0,MU,2020-05-06 03:12:12
98,Tabou,4.42,-7.35,79.81,84,31,2.75,scattered clouds,0.0,0.0,CI,2020-05-06 03:12:12
99,Luderitz,-26.65,15.16,72.63,28,0,7.43,clear sky,0.0,0.0,NA,2020-05-06 03:12:13
100,Cooma,-36.23,149.13,60.8,36,100,5.82,overcast clouds,0.0,0.0,AU,2020-05-06 03:12:13
101,Velingara,13.15,-14.12,74.97,64,0,8.08,clear sky,0.0,0.0,SN,2020-05-06 03:12:14
102,Chokurdakh,70.63,147.92,22.14,96,100,8.55,overcast clouds,0.0,0.0,RU,2020-05-06 03:12:14
103,Rio Grande,-32.03,-52.1,55.0,75,3,5.01,clear sky,0.0,0.0,BR,2020-05-06 03:12:14
104,Talnakh,69.49,88.4,24.8,73,100,11.18,overcast clouds,0.0,0.0,RU,2020-05-06 03:12:14
105,Nouadhibou,20.93,-17.03,66.2,77,40,17.22,scattered clouds,0.0,0.0,MR,2020-05-06 03:12:15
106,Weyburn,49.67,-103.85,50.0,70,96,3.0,overcast clouds,0.0,0.0,CA,2020-05-06 03:12:15
107,Jieshi,22.81,115.83,82.78,74,40,13.85,scattered clouds,0.0,0.0,CN,2020-05-06 03:12:15
108,San Quintin,30.48,-115.95,67.41,73,0,11.99,clear sky,0.0,0.0,MX,2020-05-06 03:12:15
109,Saint-Georges,12.06,-61.75,82.4,78,20,11.41,few clouds,0.0,0.0,GD,2020-05-06 03:12:16
110,Ixtapa,20.7,-105.2,78.8,83,75,5.82,broken clouds,0.0,0.0,MX,2020-05-06 03:12:16
111,Arraial Do Cabo,-22.97,-42.03,73.94,84,99,17.43,overcast clouds,0.0,0.0,BR,2020-05-06 03:12:16
112,Biu,10.61,12.19,77.81,20,0,2.04,clear sky,0.0,0.0,NG,2020-05-06 03:12:17
113,Rupert,42.62,-113.68,69.8,18,1,13.87,clear sky,0.0,0.0,US,2020-05-06 03:09:04
114,Manubul,5.47,120.8,85.14,71,0,6.26,clear sky,0.0,0.0,PH,2020-05-06 03:12:17
115,Aurillac,44.92,2.45,53.01,85,71,1.99,broken clouds,0.0,0.0,FR,2020-05-06 03:12:18
116,Qaanaaq,77.48,-69.36,11.14,83,97,4.85,overcast clouds,0.0,0.0,GL,2020-05-06 03:12:18
117,Castro,-24.79,-50.01,58.5,76,98,4.59,overcast clouds,0.0,0.0,BR,2020-05-06 03:12:18
118,Pitkyaranta,61.57,31.48,41.79,79,18,5.73,few clouds,0.0,0.0,RU,2020-05-06 03:12:19
119,Saint-Francois,46.42,3.91,48.2,87,90,2.24,mist,0.0,0.0,FR,2020-05-06 03:12:19
120,Marawi,8.0,124.29,84.99,83,82,5.01,broken clouds,0.0,0.0,PH,2020-05-06 03:12:20
121,Faya,18.39,42.45,62.6,93,62,2.06,broken clouds,0.0,0.0,SA,2020-05-06 03:12:21
122,Vysokogornyy,50.12,139.15,49.5,45,73,8.19,broken clouds,0.0,0.0,RU,2020-05-06 03:12:21
123,Kapaa,22.08,-159.32,80.6,65,1,12.75,clear sky,0.0,0.0,US,2020-05-06 03:10:55
124,Suining,30.51,105.57,83.84,56,92,7.14,overcast clouds,0.0,0.0,CN,2020-05-06 03:12:22
125,Abu Kamal,34.45,40.92,55.8,80,100,16.08,heavy intensity rain,4.37,0.0,SY,2020-05-06 03:12:22
126,Madras,13.09,80.28,86.0,79,20,6.93,mist,0.0,0.0,IN,2020-05-06 03:09:29
127,Grand Gaube,-20.01,57.66,73.99,87,11,1.99,few clouds,0.0,0.0,MU,2020-05-06 03:12:22
128,Nanortalik,60.14,-45.24,40.42,74,100,11.45,overcast clouds,0.0,0.0,GL,2020-05-06 03:12:23
129,Cabo San Lucas,22.89,-109.91,80.6,39,5,3.36,clear sky,0.0,0.0,MX,2020-05-06 03:11:44
130,Seoul,37.57,126.98,71.6,43,1,4.7,clear sky,0.0,0.0,KR,2020-05-06 03:10:08
131,Port-Gentil,-0.72,8.78,80.83,86,13,9.01,few clouds,0.0,0.0,GA,2020-05-06 03:12:23
132,Ostrovnoy,68.05,39.51,34.5,87,5,20.24,clear sky,0.0,0.0,RU,2020-05-06 03:12:24
133,Milkovo,54.72,158.62,36.59,94,100,7.25,overcast clouds,0.0,0.0,RU,2020-05-06 03:12:24
134,Dubbo,-32.25,148.62,68.0,56,0,2.24,clear sky,0.0,0.0,AU,2020-05-06 03:12:24
135,Bulawayo,-20.15,28.58,51.44,64,0,7.36,clear sky,0.0,0.0,ZW,2020-05-06 03:12:25
136,Takoradi,4.88,-1.76,80.65,87,0,5.99,clear sky,0.0,0.0,GH,2020-05-06 03:12:25
137,Amga,60.9,131.96,48.52,51,38,3.4,scattered clouds,0.0,0.0,RU,2020-05-06 03:12:25
138,San Patricio,19.22,-104.7,73.33,81,0,3.2,clear sky,0.0,0.0,MX,2020-05-06 03:12:26
139,Port Alfred,-33.59,26.89,62.01,86,20,5.01,few clouds,0.0,0.0,ZA,2020-05-06 03:12:26
140,Port Blair,11.67,92.75,86.85,66,82,5.95,broken clouds,0.0,0.0,IN,2020-05-06 03:12:27
141,Longyearbyen,78.22,15.64,30.2,68,40,24.16,scattered clouds,0.0,0.0,SJ,2020-05-06 03:12:27
142,East London,-33.02,27.91,64.4,57,11,11.56,few clouds,0.0,0.0,ZA,2020-05-06 03:12:28
143,Severo-Kurilsk,50.68,156.12,33.71,91,100,28.27,overcast clouds,0.0,0.0,RU,2020-05-06 03:12:28
144,Sao Jose Da Coroa Grande,-8.9,-35.15,79.03,82,33,9.24,scattered clouds,0.0,0.0,BR,2020-05-06 03:12:28
145,Vao,-22.67,167.48,71.65,73,100,26.33,overcast clouds,0.0,0.0,NC,2020-05-06 03:12:29
146,Uyuni,-20.46,-66.83,46.29,47,0,9.44,clear sky,0.0,0.0,BO,2020-05-06 03:12:29
147,Kholodnyy,62.72,147.95,27.93,89,74,12.48,broken clouds,0.0,0.0,RU,2020-05-06 03:12:29
148,Obo,5.4,26.49,68.61,95,100,3.09,overcast clouds,0.0,0.0,CF,2020-05-06 03:12:29
149,Stornoway,58.21,-6.39,35.6,93,19,1.63,few clouds,0.0,0.0,GB,2020-05-06 03:12:30
150,Karratha,-20.74,116.85,86.38,30,9,4.21,clear sky,0.0,0.0,AU,2020-05-06 03:12:30
151,Port Hardy,50.7,-127.42,60.8,41,75,12.75,broken clouds,0.0,0.0,CA,2020-05-06 03:12:30
152,Palmares Do Sul,-30.26,-50.51,63.61,74,100,18.86,overcast clouds,0.0,0.0,BR,2020-05-06 03:12:31
153,Acapulco,16.86,-99.89,77.0,94,20,5.82,few clouds,0.0,0.0,MX,2020-05-06 03:12:31
154,Camacha,33.08,-16.33,62.6,82,98,3.85,overcast clouds,0.0,0.0,PT,2020-05-06 03:12:31
155,Saint-Pierre,-21.34,55.48,71.6,78,38,4.7,scattered clouds,0.0,0.0,RE,2020-05-06 03:12:31
156,Pingliang,35.54,106.69,62.62,70,100,8.39,overcast clouds,0.0,0.0,CN,2020-05-06 03:12:32
157,Arman,59.7,150.17,39.79,66,100,22.21,overcast clouds,0.0,0.0,RU,2020-05-06 03:12:32
158,Tokmak,47.25,35.71,54.45,93,48,5.86,scattered clouds,0.0,0.0,UA,2020-05-06 03:12:32
159,Shepsi,44.04,39.15,57.83,90,98,4.79,overcast clouds,0.0,0.0,RU,2020-05-06 03:12:33
160,Ust-Kuyga,70.02,135.6,30.24,95,63,4.27,broken clouds,0.0,0.0,RU,2020-05-06 03:12:34
161,Trairi,-3.28,-39.27,76.71,92,26,7.76,scattered clouds,0.0,0.0,BR,2020-05-06 03:08:04
162,Bull Savanna,17.89,-77.59,76.3,86,100,7.76,overcast clouds,0.0,0.0,JM,2020-05-06 03:12:34
163,Beloha,-25.17,45.05,63.28,94,25,6.44,scattered clouds,0.0,0.0,MG,2020-05-06 03:12:35
164,Inuvik,68.35,-133.72,32.0,99,90,8.05,light snow,0.0,0.0,CA,2020-05-06 03:12:35
165,Kalmunai,7.42,81.82,86.2,70,38,4.7,scattered clouds,0.0,0.0,LK,2020-05-06 03:12:35
166,Orda,57.2,56.91,55.85,65,66,10.74,broken clouds,0.0,0.0,RU,2020-05-06 03:12:35
167,Lavrentiya,65.58,-171.0,30.96,93,0,2.39,clear sky,0.0,0.0,RU,2020-05-06 03:12:36
168,Fortuna,40.6,-124.16,55.99,87,1,8.05,clear sky,0.0,0.0,US,2020-05-06 03:12:36
169,Benguela,-12.58,13.41,78.64,82,39,1.34,scattered clouds,0.0,0.0,AO,2020-05-06 03:12:37
170,Port Lincoln,-34.73,135.87,69.82,30,97,21.9,overcast clouds,0.0,0.0,AU,2020-05-06 03:12:37
171,Lincoln,40.8,-96.67,55.4,50,1,13.87,clear sky,0.0,0.0,US,2020-05-06 03:12:38
172,Touros,-5.2,-35.46,77.0,94,40,3.36,scattered clouds,0.0,0.0,BR,2020-05-06 03:12:38
173,Yuncheng,35.02,110.99,76.87,36,0,24.43,clear sky,0.0,0.0,CN,2020-05-06 03:12:38
174,Guerrero Negro,27.98,-114.06,68.7,68,0,16.13,clear sky,0.0,0.0,MX,2020-05-06 03:12:38
175,La Trinidad,16.45,120.59,79.75,66,26,5.01,scattered clouds,0.0,0.0,PH,2020-05-06 03:12:39
176,Tiksi,71.69,128.87,24.15,97,100,8.39,light snow,0.0,0.37,RU,2020-05-06 03:12:39
177,Waingapu,-9.66,120.26,86.81,64,94,11.07,overcast clouds,0.0,0.0,ID,2020-05-06 03:12:39
178,Vestmannaeyjar,63.44,-20.27,44.24,85,100,10.71,overcast clouds,0.0,0.0,IS,2020-05-06 03:12:40
179,Pevek,69.7,170.31,25.45,88,92,2.93,overcast clouds,0.0,0.0,RU,2020-05-06 03:12:40
180,Polson,47.69,-114.16,54.0,67,80,5.99,light rain,0.56,0.0,US,2020-05-06 03:12:41
181,Fort Frances,48.6,-93.4,48.2,39,1,5.82,clear sky,0.0,0.0,CA,2020-05-06 03:12:41
182,Paamiut,61.99,-49.67,35.17,97,100,9.98,light rain,0.44,0.0,GL,2020-05-06 03:12:42
183,Esperance,-33.87,121.9,57.2,54,75,31.09,broken clouds,0.0,0.0,AU,2020-05-06 03:12:42
184,Baykit,61.67,96.37,41.36,67,76,8.48,broken clouds,0.0,0.0,RU,2020-05-06 03:12:42
185,Port Elizabeth,-33.92,25.57,62.6,82,26,11.41,scattered clouds,0.0,0.0,ZA,2020-05-06 03:12:42
186,Lang Son,21.83,106.73,89.24,56,85,9.19,overcast clouds,0.0,0.0,VN,2020-05-06 03:12:43
187,Kahului,20.89,-156.47,84.2,42,40,20.8,scattered clouds,0.0,0.0,US,2020-05-06 03:12:43
188,Belyy Yar,53.6,91.39,48.2,49,97,13.42,overcast clouds,0.0,0.0,RU,2020-05-06 03:12:43
189,Yeppoon,-23.13,150.73,78.8,44,18,17.22,few clouds,0.0,0.0,AU,2020-05-06 03:12:43
190,Wuwei,37.93,102.64,59.31,44,100,6.96,overcast clouds,0.0,0.0,CN,2020-05-06 03:12:44
191,Judenburg,47.17,14.67,43.0,90,23,4.0,few clouds,0.0,0.0,AT,2020-05-06 03:12:44
192,Provideniya,64.38,-173.3,32.0,77,0,6.71,clear sky,0.0,0.0,RU,2020-05-06 03:12:44
193,Caborca,30.58,-111.1,86.0,15,0,4.0,clear sky,0.0,0.0,MX,2020-05-06 03:12:44
194,Mapimi,25.82,-103.85,86.0,28,75,32.21,dust,0.0,0.0,MX,2020-05-06 03:12:45
195,Aanekoski,62.69,25.82,28.4,92,100,1.12,overcast clouds,0.0,0.0,FI,2020-05-06 03:12:45
196,Manzhouli,49.6,117.43,57.85,34,100,15.52,overcast clouds,0.0,0.0,CN,2020-05-06 03:12:45
197,Nikolskoye,59.7,30.79,44.01,86,10,4.47,clear sky,0.0,0.0,RU,2020-05-06 03:12:46
198,Libreville,0.39,9.45,78.8,100,40,1.12,thunderstorm,0.0,0.0,GA,2020-05-06 03:08:03
199,Kavieng,-2.57,150.8,83.95,75,99,5.48,light rain,0.15,0.0,PG,2020-05-06 03:12:46
200,Weligama,5.97,80.42,85.19,74,33,7.67,scattered clouds,0.0,0.0,LK,2020-05-06 03:11:24
201,Cidreira,-30.18,-50.21,64.45,79,100,18.3,overcast clouds,0.0,0.0,BR,2020-05-06 03:11:05
202,Isangel,-19.55,169.27,71.6,94,90,6.93,moderate rain,0.0,0.0,VU,2020-05-06 03:12:47
203,Novopokrovka,49.84,36.55,53.29,95,33,8.08,scattered clouds,0.0,0.0,UA,2020-05-06 03:12:47
204,Wadi Maliz,36.47,8.55,62.6,77,20,2.24,few clouds,0.0,0.0,TN,2020-05-06 03:12:48
205,Kontagora,10.4,5.47,82.38,53,1,2.42,clear sky,0.0,0.0,NG,2020-05-06 03:12:48
206,Bamberg,49.88,10.89,39.99,64,77,2.66,broken clouds,0.0,0.0,DE,2020-05-06 03:08:11
207,Bathsheba,13.22,-59.52,80.6,78,40,23.04,scattered clouds,0.0,0.0,BB,2020-05-06 03:12:48
208,Vardo,70.37,31.11,39.2,64,75,11.41,broken clouds,0.0,0.0,NO,2020-05-06 03:12:49
209,Astana,51.18,71.45,53.01,48,0,6.71,clear sky,0.0,0.0,KZ,2020-05-06 03:12:49
210,Santa Isabel Do Rio Negro,-0.41,-65.02,73.76,98,100,1.39,overcast clouds,0.0,0.0,BR,2020-05-06 03:12:49
211,Leh,34.17,77.58,37.87,65,47,4.81,light snow,0.0,0.13,IN,2020-05-06 03:12:49
212,Nome,64.5,-165.41,44.6,45,1,5.82,clear sky,0.0,0.0,US,2020-05-06 03:12:50
213,Iranshahr,27.2,60.68,77.0,22,0,6.93,clear sky,0.0,0.0,IR,2020-05-06 03:12:50
214,Suzhou,31.31,120.62,75.0,62,100,4.7,overcast clouds,0.0,0.0,CN,2020-05-06 03:10:14
215,Liverpool,53.41,-2.98,43.0,81,0,5.82,clear sky,0.0,0.0,GB,2020-05-06 03:12:20
216,Shama,33.61,104.29,72.05,45,24,5.37,few clouds,0.0,0.0,CN,2020-05-06 03:12:51
217,Nieuw Amsterdam,5.88,-55.08,81.0,90,100,1.99,overcast clouds,0.0,0.0,SR,2020-05-06 03:12:51
218,Colomi,-17.35,-65.87,62.6,45,20,3.36,few clouds,0.0,0.0,BO,2020-05-06 03:12:52
219,Sao Filipe,14.9,-24.5,74.14,75,2,6.38,clear sky,0.0,0.0,CV,2020-05-06 03:12:52
220,Mashhad,36.3,59.61,64.4,68,8,4.7,clear sky,0.0,0.0,IR,2020-05-06 03:12:18
221,Polis,35.04,32.43,59.0,87,90,3.36,overcast clouds,0.0,0.0,CY,2020-05-06 03:12:52
222,Te Anau,-45.42,167.72,55.49,61,71,5.95,broken clouds,0.0,0.0,NZ,2020-05-06 03:12:53
223,Tateyama,34.98,139.87,66.99,82,75,10.29,broken clouds,0.0,0.0,JP,2020-05-06 03:12:53
224,Belle Fourche,44.67,-103.85,44.01,62,20,6.93,few clouds,0.0,0.0,US,2020-05-06 03:11:48
225,Kamenka,51.32,42.77,57.0,95,94,11.9,overcast clouds,0.0,0.0,RU,2020-05-06 03:12:54
226,Wahiawa,21.5,-158.02,84.2,51,20,8.05,few clouds,0.0,0.0,US,2020-05-06 03:11:20
227,Sinazongwe,-17.26,27.46,66.88,55,0,1.86,clear sky,0.0,0.0,ZM,2020-05-06 03:12:55
228,Saint Anthony,45.02,-93.22,55.0,34,90,2.35,overcast clouds,0.0,0.0,US,2020-05-06 03:12:55
229,Iqaluit,63.75,-68.51,10.4,72,5,2.24,clear sky,0.0,0.0,CA,2020-05-06 03:12:55
230,Kaeo,-35.1,173.78,61.0,51,5,11.01,clear sky,0.0,0.0,NZ,2020-05-06 03:12:55
231,Ponta Do Sol,32.67,-17.1,62.6,82,20,3.36,few clouds,0.0,0.0,PT,2020-05-06 03:12:56
232,Praia Da Vitoria,38.73,-27.07,60.8,82,75,8.25,broken clouds,0.0,0.0,PT,2020-05-06 03:12:56
233,Markivka,49.52,39.57,56.07,88,54,4.85,broken clouds,0.0,0.0,UA,2020-05-06 03:12:56
234,Komsomolskiy,40.43,71.72,62.6,67,100,3.2,overcast clouds,0.0,0.0,UZ,2020-05-06 03:12:56
235,Mount Gambier,-37.83,140.77,60.8,59,100,13.87,overcast clouds,0.0,0.0,AU,2020-05-06 03:12:57
236,Sorong,-0.88,131.25,84.33,74,0,6.49,clear sky,0.0,0.0,ID,2020-05-06 03:12:57
237,Ilulissat,69.22,-51.1,26.6,63,0,10.29,clear sky,0.0,0.0,GL,2020-05-06 03:12:57
238,Teya,60.38,92.63,38.48,79,100,7.36,overcast clouds,0.0,0.0,RU,2020-05-06 03:12:57
239,Lupiro,-8.38,36.67,70.93,94,97,2.28,light rain,0.72,0.0,TZ,2020-05-06 03:12:58
240,Pangnirtung,66.15,-65.71,9.25,87,0,2.73,clear sky,0.0,0.0,CA,2020-05-06 03:11:06
241,Impfondo,1.64,18.07,72.88,97,99,1.74,overcast clouds,0.0,0.0,CG,2020-05-06 03:12:58
242,Airai,-8.93,125.41,73.76,80,31,3.74,light rain,0.35,0.0,TL,2020-05-06 03:12:59
243,Letlhakane,-21.42,25.58,57.25,57,0,7.85,clear sky,0.0,0.0,BW,2020-05-06 03:12:59
244,Voh,-20.97,164.7,67.55,87,100,6.67,light rain,0.37,0.0,NC,2020-05-06 03:12:59
245,Ongandjera,-17.88,15.07,69.04,43,4,8.37,clear sky,0.0,0.0,NA,2020-05-06 03:13:00
246,Winnemucca,40.97,-117.74,64.4,7,1,8.05,clear sky,0.0,0.0,US,2020-05-06 03:13:00
247,Barra Do Garcas,-15.89,-52.26,70.97,80,96,0.67,overcast clouds,0.0,0.0,BR,2020-05-06 03:13:00
248,Pangai,-19.8,-174.35,82.4,78,75,10.29,broken clouds,0.0,0.0,TO,2020-05-06 03:13:01
249,Harper,4.38,-7.72,79.9,83,50,2.95,scattered clouds,0.0,0.0,LR,2020-05-06 03:13:01
250,Serenje,-13.23,30.24,52.52,97,59,7.0,broken clouds,0.0,0.0,ZM,2020-05-06 03:13:01
251,Kroya,-7.63,109.25,81.1,83,100,1.86,overcast clouds,0.0,0.0,ID,2020-05-06 03:13:02
252,Rafaela,-31.25,-61.49,51.01,55,0,5.99,clear sky,0.0,0.0,AR,2020-05-06 03:13:02
253,Hailun,47.45,126.93,66.11,25,37,9.06,scattered clouds,0.0,0.0,CN,2020-05-06 03:13:03
254,Merauke,-8.47,140.33,83.93,70,99,12.17,overcast clouds,0.0,0.0,ID,2020-05-06 03:13:03
255,Port Hedland,-20.32,118.57,87.8,16,0,5.82,clear sky,0.0,0.0,AU,2020-05-06 03:13:03
256,Puerto Narino,-3.77,-70.38,77.0,100,75,0.94,broken clouds,0.0,0.0,CO,2020-05-06 03:13:03
257,Qui Nhon,13.77,109.23,86.92,57,0,10.58,clear sky,0.0,0.0,VN,2020-05-06 03:13:04
258,Sola,-13.88,167.55,82.13,72,94,7.78,light rain,0.78,0.0,VU,2020-05-06 03:13:04
259,Mar Del Plata,-38.0,-57.56,54.0,58,90,13.87,overcast clouds,0.0,0.0,AR,2020-05-06 03:12:16
260,Sangar,63.92,127.47,40.84,68,100,7.7,overcast clouds,0.0,0.0,RU,2020-05-06 03:13:05
261,Kruisfontein,-34.0,24.73,55.26,79,6,5.99,clear sky,0.0,0.0,ZA,2020-05-06 03:13:05
262,Simbahan,6.3,120.58,84.63,71,18,5.91,few clouds,0.0,0.0,PH,2020-05-06 03:13:05
263,Tocache,-8.18,-76.51,71.62,85,5,0.63,clear sky,0.0,0.0,PE,2020-05-06 03:13:05
264,Nizwa,22.93,57.53,84.87,41,0,1.97,clear sky,0.0,0.0,OM,2020-05-06 03:13:06
265,Pelotas,-31.77,-52.34,55.0,75,9,5.01,clear sky,0.0,0.0,BR,2020-05-06 03:13:06
266,Port Macquarie,-31.43,152.92,73.0,63,46,4.41,scattered clouds,0.0,0.0,AU,2020-05-06 03:13:06
267,Solok,-0.79,100.66,74.23,88,100,0.63,overcast clouds,0.0,0.0,ID,2020-05-06 03:13:07
268,Jaisalmer,26.91,70.92,93.29,29,11,8.68,few clouds,0.0,0.0,IN,2020-05-06 03:13:07
269,Goalpara,26.17,90.62,84.88,55,42,1.28,scattered clouds,0.0,0.0,IN,2020-05-06 03:13:07
270,Lorengau,-2.02,147.27,83.37,81,80,11.05,moderate rain,2.87,0.0,PG,2020-05-06 03:13:08
271,Pitimbu,-7.47,-34.81,78.8,94,75,12.88,broken clouds,0.0,0.0,BR,2020-05-06 03:13:08
272,Darnah,32.77,22.64,60.66,64,11,14.2,few clouds,0.0,0.0,LY,2020-05-06 03:10:32
273,Oxford,51.75,-1.26,37.99,86,0,4.7,clear sky,0.0,0.0,GB,2020-05-06 03:13:09
274,Morros,-9.45,-46.3,73.72,84,100,2.71,overcast clouds,0.0,0.0,BR,2020-05-06 03:13:09
275,Ust-Ishim,57.69,71.17,59.32,52,7,10.13,clear sky,0.0,0.0,RU,2020-05-06 03:13:09
276,Cheremshan,54.67,51.5,55.26,63,0,13.24,clear sky,0.0,0.0,RU,2020-05-06 03:13:10
277,Ingham,42.6,-84.38,41.0,32,75,5.82,broken clouds,0.0,0.0,US,2020-05-06 03:13:10
278,Lebu,-37.62,-73.65,52.54,71,19,14.9,few clouds,0.0,0.0,CL,2020-05-06 03:13:10
279,Svetlaya,46.54,138.33,47.3,63,15,5.1,few clouds,0.0,0.0,RU,2020-05-06 03:13:10
280,Rockport,28.02,-97.05,80.6,78,75,4.7,broken clouds,0.0,0.0,US,2020-05-06 03:13:11
281,Chapais,49.78,-74.85,32.0,98,1,5.82,clear sky,0.0,0.0,CA,2020-05-06 03:13:11
282,Pafos,34.77,32.42,59.0,87,90,3.36,overcast clouds,0.0,0.0,CY,2020-05-06 03:13:11
283,Codrington,-38.27,141.97,63.63,46,100,17.29,overcast clouds,0.0,0.0,AU,2020-05-06 03:13:12
284,Kihei,20.79,-156.47,84.2,42,40,20.8,scattered clouds,0.0,0.0,US,2020-05-06 03:08:28
285,Casper,42.87,-106.31,51.8,37,1,17.22,clear sky,0.0,0.0,US,2020-05-06 03:11:38
286,Gobabis,-22.45,18.97,57.25,37,0,10.49,clear sky,0.0,0.0,NA,2020-05-06 03:13:12
287,Ancud,-41.87,-73.82,44.01,100,90,2.24,overcast clouds,0.0,0.0,CL,2020-05-06 03:13:13
288,Somerset East,-32.72,25.59,49.77,71,0,2.19,clear sky,0.0,0.0,ZA,2020-05-06 03:13:13
289,Saskylakh,71.92,114.08,6.17,93,97,11.36,overcast clouds,0.0,0.0,RU,2020-05-06 03:13:13
290,Panama City,8.99,-79.52,82.4,83,66,8.05,broken clouds,0.0,0.0,PA,2020-05-06 03:13:13
291,Sakakah,29.97,40.21,60.8,44,0,23.04,clear sky,0.0,0.0,SA,2020-05-06 03:13:14
292,Kisangani,0.52,25.2,70.25,97,53,0.78,light rain,0.4,0.0,CD,2020-05-06 03:13:14
293,Cao Bang,22.67,106.25,92.19,52,8,5.23,clear sky,0.0,0.0,VN,2020-05-06 03:13:15
294,Coldingham,55.89,-2.16,35.01,1,0,6.29,clear sky,0.0,0.0,GB,2020-05-06 03:13:15
295,North Adams,42.7,-73.11,39.2,79,1,2.53,clear sky,0.0,0.0,US,2020-05-06 03:13:15
296,Shangzhi,45.22,127.97,62.02,33,0,4.88,clear sky,0.0,0.0,CN,2020-05-06 03:13:16
297,Katsuura,35.13,140.3,66.99,93,75,10.29,light intensity shower rain,0.0,0.0,JP,2020-05-06 03:13:16
298,Sao Joao Da Barra,-21.64,-41.05,71.96,88,64,7.67,broken clouds,0.0,0.0,BR,2020-05-06 03:13:16
299,Saldanha,-33.01,17.94,55.4,87,24,3.36,few clouds,0.0,0.0,ZA,2020-05-06 03:13:16
300,Vredendal,-31.67,18.5,61.75,35,100,2.64,overcast clouds,0.0,0.0,ZA,2020-05-06 03:13:17
301,Kristiansund,63.11,7.73,44.6,87,100,23.04,light rain,0.23,0.0,NO,2020-05-06 03:13:17
302,Souillac,-20.52,57.52,73.4,94,75,3.36,shower rain,0.0,0.0,MU,2020-05-06 03:13:18
303,Saint-Joseph,-21.37,55.62,71.6,78,29,4.7,scattered clouds,0.0,0.0,RE,2020-05-06 03:13:18
304,Lugovoy,42.95,72.76,52.79,58,100,6.85,overcast clouds,0.0,0.0,KZ,2020-05-06 03:13:18
305,Upernavik,72.79,-56.15,20.68,91,0,8.72,clear sky,0.0,0.0,GL,2020-05-06 03:13:19
306,Manggar,-2.88,108.27,87.3,67,2,7.18,clear sky,0.0,0.0,ID,2020-05-06 03:13:19
307,Uarini,-2.99,-65.11,73.56,98,100,2.39,overcast clouds,0.0,0.0,BR,2020-05-06 03:13:10
308,Asbe Teferi,9.08,40.87,61.29,79,13,2.95,few clouds,0.0,0.0,ET,2020-05-06 03:13:19
309,Ahuimanu,21.44,-157.84,84.2,51,20,11.41,few clouds,0.0,0.0,US,2020-05-06 03:13:20
310,Koungou,-12.73,45.2,82.4,78,20,16.11,few clouds,0.0,0.0,YT,2020-05-06 03:13:20
311,San Carlos De Bariloche,-41.15,-71.31,37.99,80,19,0.56,few clouds,0.0,0.0,AR,2020-05-06 03:13:20
312,Bamut,43.16,45.2,57.2,87,93,6.71,overcast clouds,0.0,0.0,RU,2020-05-06 03:13:20
313,Tilichiki,60.47,166.1,29.77,98,100,33.42,snow,0.0,1.12,RU,2020-05-06 03:13:21
314,Vrangel,42.73,133.08,52.07,65,5,8.68,light rain,0.11,0.0,RU,2020-05-06 03:13:21
315,Laguna,38.42,-121.42,69.01,59,1,12.75,clear sky,0.0,0.0,US,2020-05-06 03:13:21
316,Punta Alta,-38.88,-62.07,51.17,76,0,14.14,clear sky,0.0,0.0,AR,2020-05-06 03:13:21
317,Molos,38.82,22.65,64.0,62,9,5.82,clear sky,0.0,0.0,GR,2020-05-06 03:13:22
318,Roura,4.73,-52.33,82.4,78,75,13.87,broken clouds,0.0,0.0,GF,2020-05-06 03:13:22
319,Belaya Gora,68.53,146.42,27.81,96,91,4.12,overcast clouds,0.0,0.0,RU,2020-05-06 03:13:22
320,Chara,56.91,118.26,54.32,40,97,4.65,overcast clouds,0.0,0.0,RU,2020-05-06 03:13:23
321,Biak,-0.91,122.88,85.66,70,5,4.85,light rain,0.4,0.0,ID,2020-05-06 03:13:23
322,Preobrazheniye,42.9,133.91,51.22,69,45,2.91,light rain,0.25,0.0,RU,2020-05-06 03:13:23
323,Vostok,46.49,135.88,53.82,41,66,9.46,broken clouds,0.0,0.0,RU,2020-05-06 03:13:24
324,Mana,5.66,-53.78,78.62,84,100,12.88,overcast clouds,0.0,0.0,GF,2020-05-06 03:13:24
325,Solnechnyy,50.72,136.63,56.05,37,78,1.16,broken clouds,0.0,0.0,RU,2020-05-06 03:13:24
326,Naraini,25.18,80.48,92.1,29,0,7.45,clear sky,0.0,0.0,IN,2020-05-06 03:13:25
327,Walvis Bay,-22.96,14.51,76.24,23,0,7.25,clear sky,0.0,0.0,NA,2020-05-06 03:13:25
328,Tanete,-3.94,119.78,86.52,68,65,7.36,broken clouds,0.0,0.0,ID,2020-05-06 03:13:25
329,Erenhot,43.65,111.98,76.93,17,98,23.35,overcast clouds,0.0,0.0,CN,2020-05-06 03:13:26
330,Marsa Matruh,31.35,27.25,62.6,72,40,9.17,scattered clouds,0.0,0.0,EG,2020-05-06 03:13:26
331,Ganzhou,28.82,115.43,73.08,81,100,5.97,overcast clouds,0.0,0.0,CN,2020-05-06 03:13:27
332,Pisco,-13.7,-76.22,66.2,82,75,12.75,broken clouds,0.0,0.0,PE,2020-05-06 03:13:27
333,Cittanova,38.36,16.08,62.01,53,82,1.99,broken clouds,0.0,0.0,IT,2020-05-06 03:13:28
334,Port Keats,-14.25,129.55,87.28,31,82,6.76,broken clouds,0.0,0.0,AU,2020-05-06 03:13:28
335,Puerto Colombia,10.99,-74.95,82.4,83,27,12.75,scattered clouds,0.0,0.0,CO,2020-05-06 03:13:29
336,Los Llanos De Aridane,28.66,-17.92,66.2,63,20,6.93,few clouds,0.0,0.0,ES,2020-05-06 03:13:29
337,Manakara,-22.13,48.02,69.84,94,71,7.45,light rain,0.23,0.0,MG,2020-05-06 03:13:29
338,Kumluca,36.37,30.29,64.35,51,0,5.79,clear sky,0.0,0.0,TR,2020-05-06 03:13:30
339,Kijang,35.24,129.21,75.2,41,1,8.05,clear sky,0.0,0.0,KR,2020-05-06 03:13:30
340,Simao,22.79,100.97,82.74,40,95,8.5,overcast clouds,0.0,0.0,CN,2020-05-06 03:13:30
341,Beckley,37.78,-81.19,53.6,76,90,5.82,overcast clouds,0.0,0.0,US,2020-05-06 03:13:31
342,Talakan,50.32,130.37,60.35,29,0,7.0,clear sky,0.0,0.0,RU,2020-05-06 03:13:31
343,Washington,47.5,-120.5,66.99,61,97,2.44,overcast clouds,0.0,0.0,US,2020-05-06 03:10:03
344,Bismil,37.85,40.67,55.4,100,75,6.82,light intensity shower rain,0.0,0.0,TR,2020-05-06 03:13:32
345,Yaan,7.38,8.57,79.54,79,0,8.5,clear sky,0.0,0.0,NG,2020-05-06 03:13:32
346,Mayumba,-3.43,10.66,78.1,92,93,7.05,light rain,0.9,0.0,GA,2020-05-06 03:13:33
347,Sterling,39.01,-77.43,48.99,87,90,2.28,moderate rain,1.01,0.0,US,2020-05-06 03:13:33
348,Manama,26.22,50.58,80.6,74,100,4.7,overcast clouds,0.0,0.0,BH,2020-05-06 03:13:34
349,Aksarka,66.56,67.8,34.32,99,97,10.47,overcast clouds,0.0,0.0,RU,2020-05-06 03:13:34
350,Akim Swedru,5.89,-1.02,75.69,95,0,1.45,clear sky,0.0,0.0,GH,2020-05-06 03:13:34
351,Hamilton,39.18,-84.53,48.99,57,90,10.29,overcast clouds,0.0,0.0,US,2020-05-06 03:13:34
352,Wabana,47.63,-52.95,41.0,100,90,10.29,light rain,0.0,0.0,CA,2020-05-06 03:13:35
353,Coihaique,-45.58,-72.07,41.0,93,87,6.93,overcast clouds,0.0,0.0,CL,2020-05-06 03:13:35
354,Ahipara,-35.17,173.17,60.04,55,0,14.45,clear sky,0.0,0.0,NZ,2020-05-06 03:13:35
355,Kahramanmaras,38.0,37.0,55.4,71,75,3.36,broken clouds,0.0,0.0,TR,2020-05-06 03:13:36
356,Gagesti,46.33,27.97,48.67,83,86,7.92,overcast clouds,0.0,0.0,RO,2020-05-06 03:13:36
357,Carnarvon,-24.87,113.63,72.14,62,25,17.49,scattered clouds,0.0,0.0,AU,2020-05-06 03:13:36
358,La Asuncion,11.03,-63.86,80.6,88,11,20.8,few clouds,0.0,0.0,VE,2020-05-06 03:13:36
359,Adeje,28.12,-16.73,68.0,59,40,8.05,scattered clouds,0.0,0.0,ES,2020-05-06 03:13:37
360,Norwich,52.63,1.3,39.0,89,0,3.36,clear sky,0.0,0.0,GB,2020-05-06 03:13:37
361,Yamethin,20.43,96.15,95.79,36,4,8.34,clear sky,0.0,0.0,MM,2020-05-06 03:13:38
362,Muhos,64.81,25.99,39.0,74,100,4.7,overcast clouds,0.0,0.0,FI,2020-05-06 03:13:39
363,Nipawin,53.37,-104.0,48.2,66,20,11.41,few clouds,0.0,0.0,CA,2020-05-06 03:13:39
364,Danielskuil,-28.19,23.54,47.17,48,0,2.1,clear sky,0.0,0.0,ZA,2020-05-06 03:13:39
365,Quatre Cocos,-20.21,57.76,73.99,94,75,3.36,shower rain,0.0,0.0,MU,2020-05-06 03:13:39
366,Araouane,18.9,-3.53,86.65,12,47,6.82,scattered clouds,0.0,0.0,ML,2020-05-06 03:13:40
367,Grand-Santi,4.25,-54.38,73.38,97,100,2.66,overcast clouds,0.0,0.0,GF,2020-05-06 03:13:40
368,Evensk,61.95,159.23,30.24,97,100,36.19,snow,0.0,1.51,RU,2020-05-06 03:13:40
369,Novosokolniki,56.35,30.16,49.41,95,100,7.94,overcast clouds,0.0,0.0,RU,2020-05-06 03:13:40
370,Torbay,47.67,-52.73,41.0,100,90,10.29,light rain,0.25,0.0,CA,2020-05-06 03:13:41
371,Shadrinsk,56.09,63.63,59.5,52,0,7.27,clear sky,0.0,0.0,RU,2020-05-06 03:13:41
372,Dzhebariki-Khaya,62.22,135.8,38.39,78,92,2.35,overcast clouds,0.0,0.0,RU,2020-05-06 03:13:41
373,Tautira,-17.73,-149.15,80.6,83,79,2.24,broken clouds,0.0,0.0,PF,2020-05-06 03:13:42
374,Sinnamary,5.38,-52.95,78.64,85,100,13.13,overcast clouds,0.0,0.0,GF,2020-05-06 03:13:42
375,Shenjiamen,29.96,122.3,66.15,89,100,8.66,overcast clouds,0.0,0.0,CN,2020-05-06 03:13:43
376,Balabac,7.99,117.06,86.65,73,100,9.98,light rain,0.27,0.0,PH,2020-05-06 03:13:43
377,Novaya Igirma,57.13,103.91,39.43,83,100,13.67,light snow,0.0,0.19,RU,2020-05-06 03:13:43
378,Muravlenko,63.79,74.52,36.84,98,100,4.88,overcast clouds,0.0,0.0,RU,2020-05-06 03:13:44
379,Ponta Delgada,37.73,-25.67,60.8,82,75,9.17,broken clouds,0.0,0.0,PT,2020-05-06 03:13:44
380,Beyneu,45.32,55.2,62.15,45,100,21.36,overcast clouds,0.0,0.0,KZ,2020-05-06 03:13:44
381,Kindia,10.06,-12.87,74.05,94,22,1.28,few clouds,0.0,0.0,GN,2020-05-06 03:13:45
382,Maiduguri,11.85,13.16,80.67,16,0,8.57,clear sky,0.0,0.0,NG,2020-05-06 03:13:45
383,Saint George,37.1,-113.58,84.2,9,1,2.62,clear sky,0.0,0.0,US,2020-05-06 03:13:24
384,La Ligua,-32.45,-71.23,68.0,42,0,0.6,clear sky,0.0,0.0,CL,2020-05-06 03:13:45
385,Mersing,2.43,103.84,84.2,83,20,3.36,few clouds,0.0,0.0,MY,2020-05-06 03:13:46
386,Constitucion,-35.33,-72.42,56.57,61,36,5.66,scattered clouds,0.0,0.0,CL,2020-05-06 03:13:46
387,Mackay,-21.15,149.2,78.01,64,17,19.46,light rain,0.22,0.0,AU,2020-05-06 03:13:47
388,Sal Rei,16.18,-22.92,71.6,78,75,13.87,broken clouds,0.0,0.0,CV,2020-05-06 03:13:47
389,Itarema,-2.92,-39.92,77.68,88,43,10.22,light rain,0.12,0.0,BR,2020-05-06 03:13:47
390,Bukachacha,52.98,116.92,58.37,33,100,10.16,overcast clouds,0.0,0.0,RU,2020-05-06 03:13:48
391,Pacific Grove,36.62,-121.92,62.01,92,59,1.99,broken clouds,0.0,0.0,US,2020-05-06 03:13:48
392,Palauig,15.44,119.9,88.43,66,14,7.05,few clouds,0.0,0.0,PH,2020-05-06 03:13:49
393,Kon Tum,14.35,108.0,93.78,44,3,2.33,clear sky,0.0,0.0,VN,2020-05-06 03:10:16
394,Kapuvar,47.59,17.03,42.8,75,26,13.87,scattered clouds,0.0,0.0,HU,2020-05-06 03:13:49
395,Atar,20.52,-13.05,80.56,16,0,5.5,clear sky,0.0,0.0,MR,2020-05-06 03:13:50
396,Aguada De Pasajeros,22.39,-80.85,82.4,74,50,1.12,scattered clouds,0.0,0.0,CU,2020-05-06 03:13:50
397,Farafangana,-22.82,47.83,70.66,90,61,6.35,light rain,0.25,0.0,MG,2020-05-06 03:13:51
398,Kwidzyn,53.72,18.93,43.0,91,78,7.0,broken clouds,0.0,0.0,PL,2020-05-06 03:13:51
399,Cherskiy,68.75,161.3,31.66,93,61,4.36,broken clouds,0.0,0.0,RU,2020-05-06 03:13:51
400,Katherine,-14.47,132.27,87.8,18,99,13.87,overcast clouds,0.0,0.0,AU,2020-05-06 03:13:52
401,Broome,42.25,-75.83,37.4,40,1,9.17,clear sky,0.0,0.0,US,2020-05-06 03:10:09
402,Egvekinot,66.32,-179.17,27.45,92,0,2.46,clear sky,0.0,0.0,RU,2020-05-06 03:13:52
403,Omaruru,-21.43,15.93,60.51,33,0,10.09,clear sky,0.0,0.0,NA,2020-05-06 03:13:53
404,Palmer,42.16,-72.33,45.0,73,1,3.36,clear sky,0.0,0.0,US,2020-05-06 03:13:53
405,Den Helder,52.96,4.76,46.0,81,0,6.93,clear sky,0.0,0.0,NL,2020-05-06 03:13:54
406,Siocon,7.71,122.14,91.0,57,97,1.95,overcast clouds,0.0,0.0,PH,2020-05-06 03:13:54
407,Rundu,-17.93,19.77,59.59,46,12,6.35,few clouds,0.0,0.0,NA,2020-05-06 03:13:55
408,Shelburne,44.08,-80.2,34.0,83,1,3.36,clear sky,0.0,0.0,CA,2020-05-06 03:13:55
409,Raudeberg,61.99,5.14,45.0,94,100,17.25,light rain,0.32,0.0,NO,2020-05-06 03:13:55
410,Antofagasta,-23.65,-70.4,59.0,82,20,2.68,few clouds,0.0,0.0,CL,2020-05-06 03:13:56
411,Asau,46.43,26.4,44.01,88,100,1.21,light rain,0.51,0.0,RO,2020-05-06 03:13:56
412,Hay River,60.82,-115.8,39.2,64,40,9.17,scattered clouds,0.0,0.0,CA,2020-05-06 03:13:57
413,Voskevaz,40.28,44.3,51.8,93,40,1.12,mist,0.0,0.0,AM,2020-05-06 03:13:57
414,Bulanash,57.28,62.0,61.23,56,45,8.46,scattered clouds,0.0,0.0,RU,2020-05-06 03:13:58
415,Olafsvik,64.89,-23.71,41.99,89,100,8.14,overcast clouds,0.0,0.0,IS,2020-05-06 03:13:58
416,Peno,56.93,32.74,51.84,97,100,4.47,overcast clouds,0.0,0.0,RU,2020-05-06 03:13:58
417,Portland,45.52,-122.68,66.99,59,32,1.99,light rain,0.11,0.0,US,2020-05-06 03:11:19
418,Winslow,35.02,-110.7,73.4,13,1,8.23,clear sky,0.0,0.0,US,2020-05-06 03:13:59
419,Camana,-16.62,-72.71,67.01,78,96,6.4,overcast clouds,0.0,0.0,PE,2020-05-06 03:13:59
420,Korla,41.76,86.15,68.22,27,100,8.68,overcast clouds,0.0,0.0,CN,2020-05-06 03:14:00
421,Abu Samrah,35.3,37.18,55.33,81,15,18.05,few clouds,0.0,0.0,SY,2020-05-06 03:14:00
422,Slavutych,51.52,30.73,46.74,93,100,5.91,overcast clouds,0.0,0.0,UA,2020-05-06 03:14:01
423,Santa Rosa,14.31,121.11,95.0,56,40,5.82,scattered clouds,0.0,0.0,PH,2020-05-06 03:14:01
424,Aleksandrov Gay,50.15,48.57,59.14,51,96,18.34,overcast clouds,0.0,0.0,RU,2020-05-06 03:14:02
425,Griffith,41.53,-87.42,43.0,70,90,6.42,overcast clouds,0.0,0.0,US,2020-05-06 03:11:20
426,Xining,36.62,101.77,68.2,31,100,4.23,overcast clouds,0.0,0.0,CN,2020-05-06 03:14:03
427,Kenora,49.82,-94.43,50.0,34,20,5.82,few clouds,0.0,0.0,CA,2020-05-06 03:14:03
428,Juegang,32.32,121.19,63.0,87,100,1.01,overcast clouds,0.0,0.0,CN,2020-05-06 03:14:04
429,Dingle,11.0,122.67,93.24,51,39,5.59,scattered clouds,0.0,0.0,PH,2020-05-06 03:14:04
430,Isla Mujeres,21.23,-86.73,82.4,78,40,9.17,scattered clouds,0.0,0.0,MX,2020-05-06 03:14:04
431,Sennoy,52.15,46.96,54.27,88,100,14.12,moderate rain,3.22,0.0,RU,2020-05-06 03:14:04
432,Mount Isa,-20.73,139.5,80.6,28,0,16.11,clear sky,0.0,0.0,AU,2020-05-06 03:14:05
433,Saveh,35.02,50.36,71.67,36,4,3.13,clear sky,0.0,0.0,IR,2020-05-06 03:14:05
434,Burnie,-41.07,145.92,61.0,67,100,5.99,overcast clouds,0.0,0.0,AU,2020-05-06 03:14:05
435,Algiers,36.75,3.04,62.6,93,98,3.36,overcast clouds,0.0,0.0,DZ,2020-05-06 03:13:42
436,Plettenberg Bay,-34.05,23.37,60.35,80,8,4.85,clear sky,0.0,0.0,ZA,2020-05-06 03:14:06
437,Rosa Zarate,0.33,-79.47,74.93,91,75,2.19,broken clouds,0.0,0.0,EC,2020-05-06 03:14:06
438,Orvault,47.27,-1.62,53.6,100,90,2.24,fog,0.0,0.0,FR,2020-05-06 03:14:07
439,Beni,0.5,29.47,62.73,100,72,1.9,broken clouds,0.0,0.0,CD,2020-05-06 03:14:07
440,Florenville,49.7,5.31,37.99,78,5,8.01,clear sky,0.0,0.0,BE,2020-05-06 03:14:07
441,Nekhayevskiy,50.41,41.76,57.43,91,97,5.77,overcast clouds,0.0,0.0,RU,2020-05-06 03:14:08
442,Tazmalt,36.39,4.4,64.4,88,92,2.24,overcast clouds,0.0,0.0,DZ,2020-05-06 03:14:08
443,Nicoya,10.15,-85.45,73.0,88,100,14.0,overcast clouds,0.0,0.0,CR,2020-05-06 03:14:09
444,Ada,43.42,-116.13,77.0,12,1,9.17,clear sky,0.0,0.0,US,2020-05-06 03:14:09
445,Lao Cai,22.48,103.95,96.51,41,53,1.52,broken clouds,0.0,0.0,VN,2020-05-06 03:14:01
446,Strezhevoy,60.73,77.59,46.4,87,100,6.71,light rain,0.0,0.0,RU,2020-05-06 03:14:10
447,Mazatlan,23.22,-106.42,80.01,57,40,5.82,scattered clouds,0.0,0.0,MX,2020-05-06 03:14:10
448,Oliva,38.92,-0.12,64.0,8,0,2.86,clear sky,0.0,0.0,ES,2020-05-06 03:14:11
449,Veraval,20.9,70.37,84.47,67,0,11.81,clear sky,0.0,0.0,IN,2020-05-06 03:11:56
450,Elko,41.0,-115.5,71.6,10,1,5.82,clear sky,0.0,0.0,US,2020-05-06 03:14:11
451,Petropavlovsk-Kamchatskiy,53.05,158.65,44.6,65,75,4.47,broken clouds,0.0,0.0,RU,2020-05-06 03:14:12
452,Ningxiang,37.34,111.21,67.86,25,55,24.23,broken clouds,0.0,0.0,CN,2020-05-06 03:14:12
453,Kantang,7.41,99.52,86.0,79,20,1.05,few clouds,0.0,0.0,TH,2020-05-06 03:14:12
454,Grindavik,63.84,-22.43,42.8,81,90,5.82,overcast clouds,0.0,0.0,IS,2020-05-06 03:14:13
455,Mareeba,-17.0,145.43,75.99,78,40,13.87,scattered clouds,0.0,0.0,AU,2020-05-06 03:14:13
456,Oranjestad,12.52,-70.03,80.6,83,20,18.34,few clouds,0.0,0.0,AW,2020-05-06 03:14:07
457,Odweyne,9.41,45.06,73.74,74,100,6.58,light rain,0.33,0.0,SO,2020-05-06 03:14:14
458,Pratapgarh,24.03,74.78,93.2,15,0,6.4,clear sky,0.0,0.0,IN,2020-05-06 03:14:14
459,Aklavik,68.22,-135.01,30.2,92,90,6.93,light snow,0.0,0.0,CA,2020-05-06 03:14:14
460,Beringovskiy,63.05,179.32,28.42,91,0,4.88,clear sky,0.0,0.0,RU,2020-05-06 03:14:15
461,Turayf,31.67,38.66,50.0,93,40,18.34,scattered clouds,0.0,0.0,SA,2020-05-06 03:14:15
462,Itiuba,-10.69,-39.85,69.21,97,74,4.72,broken clouds,0.0,0.0,BR,2020-05-06 03:14:15
463,Penzance,50.12,-5.54,52.0,93,49,20.8,scattered clouds,0.0,0.0,GB,2020-05-06 03:14:16
464,San Ignacio,17.16,-89.07,74.82,88,13,4.45,few clouds,0.0,0.0,BZ,2020-05-06 03:14:16
465,Socorro,31.65,-106.3,78.8,19,5,13.87,clear sky,0.0,0.0,US,2020-05-06 03:14:16
466,Tulun,54.56,100.58,46.04,55,100,18.7,overcast clouds,0.0,0.0,RU,2020-05-06 03:14:16
467,Caconda,-13.73,15.07,57.88,75,6,4.74,clear sky,0.0,0.0,AO,2020-05-06 03:14:17
468,Santiago Del Estero,-27.8,-64.26,62.02,38,100,9.15,overcast clouds,0.0,0.0,AR,2020-05-06 03:14:17
469,Bang Saphan,11.21,99.51,89.6,75,20,4.7,few clouds,0.0,0.0,TH,2020-05-06 03:14:17
470,Peace River,56.25,-117.29,51.8,53,75,6.93,broken clouds,0.0,0.0,CA,2020-05-06 03:14:18
471,La Fria,8.22,-72.24,75.85,80,85,3.4,light rain,0.11,0.0,VE,2020-05-06 03:14:18
472,Baruun-Urt,46.68,113.28,76.3,17,100,19.01,overcast clouds,0.0,0.0,MN,2020-05-06 03:14:19
473,Sioux Lookout,50.1,-91.92,46.4,42,20,5.82,few clouds,0.0,0.0,CA,2020-05-06 03:14:19
474,Itaituba,-4.28,-55.98,74.79,97,76,0.65,broken clouds,0.0,0.0,BR,2020-05-06 03:14:19
475,Hofn,64.25,-15.21,47.34,52,92,10.65,overcast clouds,0.0,0.0,IS,2020-05-06 03:14:20
476,Odessa,46.48,30.73,44.6,100,3,4.47,fog,0.0,0.0,UA,2020-05-06 03:14:20
477,Tual,-5.67,132.75,83.48,80,61,13.71,broken clouds,0.0,0.0,ID,2020-05-06 03:14:20
478,Verkhnevilyuysk,63.45,120.32,53.64,51,100,4.41,overcast clouds,0.0,0.0,RU,2020-05-06 03:14:20
479,Gillette,44.29,-105.5,43.0,56,1,6.96,clear sky,0.0,0.0,US,2020-05-06 03:11:40
480,Pedasi,7.53,-80.03,82.09,80,99,9.6,light rain,0.58,0.0,PA,2020-05-06 03:14:21
481,Brigham City,41.51,-112.02,64.4,25,1,6.93,clear sky,0.0,0.0,US,2020-05-06 03:14:21
482,College,64.86,-147.8,59.0,28,75,4.14,broken clouds,0.0,0.0,US,2020-05-06 03:14:22
483,Roebourne,-20.78,117.13,86.32,30,1,4.41,clear sky,0.0,0.0,AU,2020-05-06 03:14:22
484,Cururupu,-1.83,-44.87,76.14,96,96,4.03,moderate rain,1.11,0.0,BR,2020-05-06 03:14:22
485,Helong,42.54,129.0,60.62,32,0,8.25,clear sky,0.0,0.0,CN,2020-05-06 03:14:22
486,Caravelas,-17.71,-39.25,71.73,79,0,4.5,clear sky,0.0,0.0,BR,2020-05-06 03:14:23
487,Edd,13.93,41.69,89.49,50,74,12.93,broken clouds,0.0,0.0,ER,2020-05-06 03:14:23
488,Immenstadt,47.56,10.22,44.01,94,92,3.0,light rain,0.23,0.0,DE,2020-05-06 03:14:23
489,San Pedro Carcha,15.48,-90.27,66.72,93,100,2.21,light rain,0.28,0.0,GT,2020-05-06 03:14:24
490,Vagur,61.47,-6.81,46.08,86,99,21.85,overcast clouds,0.0,0.0,FO,2020-05-06 03:14:24
491,Pangkalanbuun,-2.68,111.62,92.41,55,60,2.98,broken clouds,0.0,0.0,ID,2020-05-06 03:11:41
492,Sahbuz,39.41,45.57,50.0,100,40,4.7,scattered clouds,0.0,0.0,AZ,2020-05-06 03:14:24
493,Bardiyah,31.76,25.09,59.32,84,0,10.6,clear sky,0.0,0.0,LY,2020-05-06 03:14:25
494,Miraflores,19.22,-98.81,59.0,77,90,6.93,thunderstorm with heavy rain,0.0,0.0,MX,2020-05-06 03:14:25
495,Doha,25.29,51.53,84.0,73,62,2.24,broken clouds,0.0,0.0,QA,2020-05-06 03:14:25
496,Hervey Bay,-25.3,152.85,75.0,62,0,8.99,clear sky,0.0,0.0,AU,2020-05-06 03:14:25
497,Kawardha,22.02,81.25,92.7,25,66,6.55,broken clouds,0.0,0.0,IN,2020-05-06 03:14:26
498,Solec Kujawski,53.08,18.23,46.99,93,90,12.75,overcast clouds,0.0,0.0,PL,2020-05-06 03:14:26
499,Merta,26.65,74.03,92.89,18,0,12.73,clear sky,0.0,0.0,IN,2020-05-06 03:14:27
500,Russell,32.35,-85.2,78.8,69,90,5.82,overcast clouds,0.0,0.0,US,2020-05-06 03:14:27
501,Geraldton,-28.77,114.6,68.0,45,40,20.8,scattered clouds,0.0,0.0,AU,2020-05-06 03:14:27
502,Vilhena,-12.74,-60.15,70.2,93,92,2.13,overcast clouds,0.0,0.0,BR,2020-05-06 03:14:28
503,Sibolga,1.74,98.78,82.69,70,100,0.92,overcast clouds,0.0,0.0,ID,2020-05-06 03:14:28
504,Kasongo,-4.45,26.67,69.08,99,41,2.71,scattered clouds,0.0,0.0,CD,2020-05-06 03:14:28
505,Calvinia,-31.47,19.78,57.43,36,100,5.26,overcast clouds,0.0,0.0,ZA,2020-05-06 03:14:29
506,Vila Do Maio,15.13,-23.22,71.6,78,0,18.34,clear sky,0.0,0.0,CV,2020-05-06 03:14:29
507,Hit,33.64,42.83,67.14,55,4,26.33,clear sky,0.0,0.0,IQ,2020-05-06 03:14:29
508,Cap Malheureux,-19.98,57.61,75.0,87,10,1.99,clear sky,0.0,0.0,MU,2020-05-06 03:14:30
509,Saint-Louis,16.33,-15.0,86.0,35,0,4.7,clear sky,0.0,0.0,SN,2020-05-06 03:14:30
510,Carutapera,-1.2,-46.02,77.0,94,96,6.8,light rain,0.7,0.0,BR,2020-05-06 03:14:31
511,Hueytamalco,19.95,-97.27,71.33,84,26,2.59,scattered clouds,0.0,0.0,MX,2020-05-06 03:14:31
512,Goderich,43.75,-81.72,44.01,65,100,1.01,overcast clouds,0.0,0.0,CA,2020-05-06 03:14:31
513,Mehamn,71.04,27.85,35.74,84,28,13.11,scattered clouds,0.0,0.0,NO,2020-05-06 03:14:32
514,Abu Dhabi,24.47,54.37,79.0,73,0,3.36,clear sky,0.0,0.0,AE,2020-05-06 03:14:32
515,Katobu,-4.94,122.53,89.35,64,90,1.99,overcast clouds,0.0,0.0,ID,2020-05-06 03:14:32
516,Quedlinburg,51.78,11.15,37.99,83,7,5.77,clear sky,0.0,0.0,DE,2020-05-06 03:14:33
517,Turukhansk,65.82,87.98,30.52,89,88,6.67,overcast clouds,0.0,0.0,RU,2020-05-06 03:14:33
518,Zirgan,53.22,55.92,57.67,57,0,4.12,clear sky,0.0,0.0,RU,2020-05-06 03:14:33
519,Cayenne,4.93,-52.33,82.4,78,75,13.87,broken clouds,0.0,0.0,GF,2020-05-06 03:14:33
520,Humberto De Campos,-2.6,-43.46,75.87,93,73,4.5,light rain,0.14,0.0,BR,2020-05-06 03:13:04
521,Wonthaggi,-38.6,145.59,64.0,67,100,13.0,overcast clouds,0.0,0.0,AU,2020-05-06 03:14:34
522,Yamada,39.47,141.95,55.51,70,100,12.1,overcast clouds,0.0,0.0,JP,2020-05-06 03:14:34
523,Iskateley,67.68,53.15,28.56,98,44,6.89,scattered clouds,0.0,0.0,RU,2020-05-06 03:14:34
524,Mindelo,16.89,-24.98,71.6,78,40,17.22,scattered clouds,0.0,0.0,CV,2020-05-06 03:14:35
525,Key West,24.56,-81.78,80.6,69,1,5.82,clear sky,0.0,0.0,US,2020-05-06 03:11:35
526,Rio Gallegos,-51.62,-69.22,32.0,70,79,4.7,broken clouds,0.0,0.0,AR,2020-05-06 03:14:35
527,Alyangula,-13.85,136.42,86.0,45,40,9.17,scattered clouds,0.0,0.0,AU,2020-05-06 03:14:35
528,Kattivakkam,13.22,80.32,86.0,79,20,6.93,mist,0.0,0.0,IN,2020-05-06 03:14:36
529,Kraskino,42.71,130.78,61.95,35,0,2.13,clear sky,0.0,0.0,RU,2020-05-06 03:14:36
530,Leshukonskoye,64.9,45.76,34.79,93,69,3.09,broken clouds,0.0,0.0,RU,2020-05-06 03:14:36
531,Avila,40.58,-5.0,45.0,78,34,2.55,scattered clouds,0.0,0.0,ES,2020-05-06 03:14:37
532,Seydisehir,37.42,31.85,43.27,83,0,2.98,clear sky,0.0,0.0,TR,2020-05-06 03:14:37
533,Novoilinsk,51.68,108.71,41.68,78,100,10.11,light rain,0.34,0.0,RU,2020-05-06 03:14:37
534,Auki,-8.77,160.7,85.59,64,73,5.06,broken clouds,0.0,0.0,SB,2020-05-06 03:14:37
535,Jaque,7.52,-78.17,81.05,85,100,2.1,light rain,0.28,0.0,PA,2020-05-06 03:14:37
536,Ketchikan,55.34,-131.65,53.6,58,1,9.17,clear sky,0.0,0.0,US,2020-05-06 03:14:38
537,Mabaruma,8.2,-59.78,78.71,81,100,5.08,overcast clouds,0.0,0.0,GY,2020-05-06 03:14:38
